{"class":"VERSION","release":"3.17","rev":"3.17","proto_major":3,"proto_minor":12}
{"class":"DEVICES","devices":[{"class":"DEVICE","path":"/dev/ttyUSB0","driver":"SiRF","subtype":")\u0006GSD4e_4.1.2-P1_RPATCH.10- 04/25/2019 115","activated":"2021-11-29T02:13:20.867Z","flags":1,"native":1,"bps":4800,"parity":"N","stopbits":1,"cycle":1.00}]}
{"class":"WATCH","enable":true,"json":true,"nmea":false,"raw":0,"scaled":false,"timing":false,"split24":false,"pps":false}
{"class":"SKY","device":"/dev/ttyUSB0","time":"2021-11-29T02:13:20.000Z","xdop":0.75,"ydop":0.82,"vdop":1.90,"tdop":0.92,"hdop":1.00,"gdop":2.53,"pdop":2.20,"satellites":[{"PRN":8,"el":26,"az":43,"ss":14,"used":true},{"PRN":7,"el":75,"az":169,"ss":19,"used":true},{"PRN":1,"el":48,"az":124,"ss":27,"used":true},{"PRN":19,"el":10,"az":229,"ss":16,"used":true},{"PRN":14,"el":38,"az":306,"ss":19,"used":true},{"PRN":21,"el":46,"az":76,"ss":25,"used":true},{"PRN":30,"el":67,"az":301,"ss":31,"used":true},{"PRN":9,"el":9,"az":195,"ss":16,"used":true},{"PRN":17,"el":36,"az":237,"ss":4,"used":false},{"PRN":13,"el":14,"az":310,"ss":0,"used":false},{"PRN":22,"el":1,"az":123,"ss":0,"used":false},{"PRN":135,"el":27,"az":243,"ss":0,"used":false}]}
{"class":"TPV","device":"/dev/ttyUSB0","mode":3,"time":"2021-11-29T02:13:20.000Z","ept":0.005,"lat":32.557082791,"lon":-83.656899276,"alt":126.677,"epx":11.227,"epy":12.270,"epv":43.700,"track":0.0000,"speed":0.000,"climb":0.000,"eps":0.03,"epc":0.09}
{"class":"TPV","device":"/dev/ttyUSB0","mode":3,"time":"2021-11-29T02:13:21.000Z","ept":0.005,"lat":32.557082791,"lon":-83.656899276,"alt":126.677,"epx":11.227,"epy":12.270,"epv":43.700,"track":0.0000,"speed":0.000,"climb":0.000,"eps":24.54,"epc":87.40}
{"class":"TPV","device":"/dev/ttyUSB0","mode":1,"time":"2021-11-29T02:13:22.780Z","ept":0.005}
{"class":"TPV","device":"/dev/ttyUSB0","mode":1,"time":"2021-11-29T02:13:23.780Z","ept":0.005}
{"class":"SKY","device":"/dev/ttyUSB0","time":"2021-11-29T02:13:24.090Z","xdop":0.75,"ydop":0.82,"vdop":1.90,"tdop":2.04,"hdop":50.00,"gdop":2.53,"pdop":2.20,"satellites":[{"PRN":30,"el":67,"az":300,"ss":30,"used":true},{"PRN":1,"el":49,"az":124,"ss":13,"used":true},{"PRN":9,"el":9,"az":195,"ss":9,"used":true},{"PRN":14,"el":38,"az":306,"ss":2,"used":true},{"PRN":21,"el":46,"az":76,"ss":12,"used":true},{"PRN":7,"el":74,"az":169,"ss":0,"used":false},{"PRN":17,"el":36,"az":237,"ss":0,"used":false},{"PRN":8,"el":26,"az":43,"ss":0,"used":false},{"PRN":13,"el":14,"az":310,"ss":0,"used":false},{"PRN":19,"el":10,"az":229,"ss":0,"used":false},{"PRN":22,"el":1,"az":123,"ss":0,"used":false}]}
{"class":"TPV","device":"/dev/ttyUSB0","mode":1,"time":"2021-11-29T02:13:24.090Z","ept":0.005}
{"class":"TPV","device":"/dev/ttyUSB0","mode":3,"time":"2021-11-29T02:13:24.780Z","ept":0.005,"lat":32.557015852,"lon":-83.656906334,"alt":129.012,"epx":11.227,"epy":12.270,"epv":43.700,"track":98.9391,"speed":0.391,"climb":-0.137,"eps":6.49,"epc":23.12}
{"class":"TPV","device":"/dev/ttyUSB0","mode":3,"time":"2021-11-29T02:13:25.780Z","ept":0.005,"lat":32.557011225,"lon":-83.656900458,"alt":133.532,"epx":11.227,"epy":12.270,"epv":43.700,"track":109.2005,"speed":0.248,"climb":0.128,"eps":24.54,"epc":87.40}
{"class":"SKY","device":"/dev/ttyUSB0","time":"2021-11-29T02:13:26.790Z","xdop":0.75,"ydop":0.82,"vdop":1.90,"tdop":1.06,"hdop":1.00,"gdop":2.53,"pdop":2.20,"satellites":[{"PRN":30,"el":67,"az":300,"ss":30,"used":true},{"PRN":1,"el":49,"az":124,"ss":26,"used":true},{"PRN":9,"el":9,"az":195,"ss":20,"used":true},{"PRN":14,"el":38,"az":306,"ss":18,"used":true},{"PRN":21,"el":46,"az":76,"ss":25,"used":true},{"PRN":8,"el":26,"az":43,"ss":16,"used":true},{"PRN":7,"el":74,"az":169,"ss":16,"used":true},{"PRN":17,"el":36,"az":237,"ss":0,"used":false},{"PRN":13,"el":14,"az":310,"ss":0,"used":false},{"PRN":19,"el":10,"az":229,"ss":0,"used":false},{"PRN":22,"el":1,"az":123,"ss":0,"used":false},{"PRN":138,"el":44,"az":219,"ss":0,"used":false}]}
{"class":"TPV","device":"/dev/ttyUSB0","mode":3,"time":"2021-11-29T02:13:26.790Z","ept":0.005,"lat":32.557007035,"lon":-83.656860481,"alt":136.118,"epx":11.227,"epy":12.270,"epv":43.700,"track":55.3349,"speed":0.621,"climb":0.144,"eps":24.30,"epc":86.53}
{"class":"TPV","device":"/dev/ttyUSB0","mode":3,"time":"2021-11-29T02:13:27.790Z","ept":0.005,"lat":32.557007035,"lon":-83.656860481,"alt":136.118,"epx":11.227,"epy":12.270,"epv":43.700,"track":39.6741,"speed":0.605,"climb":0.199,"eps":24.54,"epc":87.40}
{"class":"TPV","device":"/dev/ttyUSB0","mode":3,"time":"2021-11-29T02:13:28.790Z","ept":0.005,"lat":32.557014636,"lon":-83.656860481,"alt":136.657,"epx":11.227,"epy":12.270,"epv":43.700,"track":3.8108,"speed":0.623,"climb":-0.045,"eps":24.54,"epc":87.40}
{"class":"SKY","device":"/dev/ttyUSB0","time":"2021-11-29T02:13:30.000Z","xdop":0.75,"ydop":0.82,"vdop":1.90,"tdop":1.06,"hdop":1.00,"gdop":2.53,"pdop":2.20,"satellites":[{"PRN":30,"el":67,"az":300,"ss":31,"used":true},{"PRN":1,"el":49,"az":124,"ss":26,"used":true},{"PRN":9,"el":9,"az":195,"ss":20,"used":true},{"PRN":14,"el":38,"az":306,"ss":18,"used":true},{"PRN":21,"el":46,"az":76,"ss":25,"used":true},{"PRN":8,"el":26,"az":43,"ss":16,"used":true},{"PRN":7,"el":74,"az":169,"ss":17,"used":true},{"PRN":17,"el":36,"az":237,"ss":0,"used":false},{"PRN":13,"el":14,"az":310,"ss":0,"used":false},{"PRN":19,"el":10,"az":229,"ss":0,"used":false},{"PRN":22,"el":1,"az":123,"ss":0,"used":false},{"PRN":138,"el":44,"az":219,"ss":0,"used":false}]}
{"class":"TPV","device":"/dev/ttyUSB0","mode":3,"time":"2021-11-29T02:13:30.000Z","ept":0.005,"lat":32.557014636,"lon":-83.656860481,"alt":136.657,"epx":11.227,"epy":12.270,"epv":43.700,"track":24.2572,"speed":0.370,"climb":-0.063,"eps":20.28,"epc":72.23}
{"class":"TPV","device":"/dev/ttyUSB0","mode":3,"time":"2021-11-29T02:13:31.000Z","ept":0.005,"lat":32.557019459,"lon":-83.656859305,"alt":135.819,"epx":11.227,"epy":12.270,"epv":43.700,"track":4.5849,"speed":0.346,"climb":-0.075,"eps":24.54,"epc":87.40}
{"class":"TPV","device":"/dev/ttyUSB0","mode":3,"time":"2021-11-29T02:13:32.000Z","ept":0.005,"lat":32.557027059,"lon":-83.656859305,"alt":136.357,"epx":11.227,"epy":12.270,"epv":43.700,"track":327.1615,"speed":0.382,"climb":-0.270,"eps":24.54,"epc":87.40}
{"class":"SKY","device":"/dev/ttyUSB0","time":"2021-11-29T02:13:33.000Z","xdop":0.75,"ydop":0.82,"vdop":1.90,"tdop":1.06,"hdop":1.00,"gdop":2.53,"pdop":2.20,"satellites":[{"PRN":30,"el":67,"az":300,"ss":31,"used":true},{"PRN":1,"el":49,"az":124,"ss":26,"used":true},{"PRN":9,"el":9,"az":195,"ss":20,"used":true},{"PRN":14,"el":38,"az":306,"ss":19,"used":true},{"PRN":21,"el":46,"az":76,"ss":25,"used":true},{"PRN":8,"el":26,"az":43,"ss":16,"used":true},{"PRN":7,"el":74,"az":169,"ss":18,"used":true},{"PRN":17,"el":36,"az":237,"ss":0,"used":false},{"PRN":13,"el":14,"az":310,"ss":0,"used":false},{"PRN":19,"el":10,"az":229,"ss":0,"used":false},{"PRN":22,"el":1,"az":123,"ss":0,"used":false},{"PRN":138,"el":44,"az":219,"ss":0,"used":false}]}
{"class":"TPV","device":"/dev/ttyUSB0","mode":3,"time":"2021-11-29T02:13:33.000Z","ept":0.005,"lat":32.557027059,"lon":-83.656859305,"alt":136.357,"epx":11.227,"epy":12.270,"epv":43.700,"track":307.1400,"speed":0.433,"climb":-0.177,"eps":24.54,"epc":87.40}
{"class":"TPV","device":"/dev/ttyUSB0","mode":3,"time":"2021-11-29T02:13:34.000Z","ept":0.005,"lat":32.557032418,"lon":-83.656868711,"alt":135.426,"epx":11.227,"epy":12.270,"epv":43.700,"track":11.6714,"speed":0.137,"climb":-0.209,"eps":24.54,"epc":87.40}
{"class":"TPV","device":"/dev/ttyUSB0","mode":3,"time":"2021-11-29T02:13:35.000Z","ept":0.005,"lat":32.557032418,"lon":-83.656868711,"alt":135.426,"epx":11.227,"epy":12.270,"epv":43.700,"track":289.2005,"speed":0.248,"climb":-0.128,"eps":24.54,"epc":87.40}
{"class":"SKY","device":"/dev/ttyUSB0","time":"2021-11-29T02:13:36.000Z","xdop":0.75,"ydop":0.82,"vdop":1.90,"tdop":1.06,"hdop":1.00,"gdop":2.53,"pdop":2.20,"satellites":[{"PRN":30,"el":67,"az":300,"ss":31,"used":true},{"PRN":1,"el":49,"az":124,"ss":26,"used":true},{"PRN":9,"el":9,"az":195,"ss":21,"used":true},{"PRN":14,"el":38,"az":306,"ss":19,"used":true},{"PRN":21,"el":46,"az":76,"ss":25,"used":true},{"PRN":8,"el":26,"az":43,"ss":16,"used":true},{"PRN":7,"el":74,"az":169,"ss":18,"used":true},{"PRN":17,"el":36,"az":237,"ss":0,"used":false},{"PRN":13,"el":14,"az":310,"ss":0,"used":false},{"PRN":19,"el":10,"az":229,"ss":0,"used":false},{"PRN":22,"el":1,"az":123,"ss":0,"used":false},{"PRN":138,"el":44,"az":219,"ss":0,"used":false}]}
{"class":"TPV","device":"/dev/ttyUSB0","mode":3,"time":"2021-11-29T02:13:36.000Z","ept":0.005,"lat":32.557032418,"lon":-83.656868711,"alt":135.426,"epx":11.227,"epy":12.270,"epv":43.700,"track":328.4217,"speed":0.211,"climb":-0.049,"eps":24.54,"epc":87.40}
{"class":"TPV","device":"/dev/ttyUSB0","mode":3,"time":"2021-11-29T02:13:37.000Z","ept":0.005,"lat":32.557032418,"lon":-83.656868711,"alt":135.426,"epx":11.227,"epy":12.270,"epv":43.700,"track":302.0131,"speed":0.440,"climb":0.100,"eps":24.54,"epc":87.40}
{"class":"TPV","device":"/dev/ttyUSB0","mode":3,"time":"2021-11-29T02:13:38.000Z","ept":0.005,"lat":32.557040554,"lon":-83.656879293,"alt":135.871,"epx":11.227,"epy":12.270,"epv":43.700,"track":330.3384,"speed":0.251,"climb":0.123,"eps":24.54,"epc":87.40}
{"class":"SKY","device":"/dev/ttyUSB0","time":"2021-11-29T02:13:39.000Z","xdop":0.75,"ydop":0.82,"vdop":1.90,"tdop":1.05,"hdop":1.00,"gdop":2.53,"pdop":2.20,"satellites":[{"PRN":30,"el":67,"az":300,"ss":31,"used":true},{"PRN":1,"el":49,"az":124,"ss":26,"used":true},{"PRN":9,"el":9,"az":195,"ss":21,"used":true},{"PRN":14,"el":38,"az":306,"ss":19,"used":true},{"PRN":21,"el":46,"az":76,"ss":25,"used":true},{"PRN":8,"el":26,"az":43,"ss":15,"used":true},{"PRN":7,"el":74,"az":169,"ss":18,"used":true},{"PRN":17,"el":36,"az":237,"ss":12,"used":true},{"PRN":13,"el":14,"az":310,"ss":0,"used":false},{"PRN":19,"el":10,"az":229,"ss":0,"used":false},{"PRN":22,"el":1,"az":123,"ss":0,"used":false},{"PRN":138,"el":44,"az":219,"ss":0,"used":false}]}
{"class":"TPV","device":"/dev/ttyUSB0","mode":3,"time":"2021-11-29T02:13:39.000Z","ept":0.005,"lat":32.557040554,"lon":-83.656879293,"alt":135.871,"epx":11.227,"epy":12.270,"epv":43.700,"track":0.0000,"speed":0.105,"climb":0.067,"eps":24.54,"epc":87.40}
{"class":"TPV","device":"/dev/ttyUSB0","mode":3,"time":"2021-11-29T02:13:40.000Z","ept":0.005,"lat":32.557040554,"lon":-83.656879293,"alt":135.871,"epx":11.227,"epy":12.270,"epv":43.700,"track":295.8198,"speed":0.276,"climb":0.044,"eps":24.54,"epc":87.40}
{"class":"TPV","device":"/dev/ttyUSB0","mode":3,"time":"2021-11-29T02:13:41.000Z","ept":0.005,"lat":32.557040554,"lon":-83.656879293,"alt":135.871,"epx":11.227,"epy":12.270,"epv":43.700,"track":312.2353,"speed":0.168,"climb":0.056,"eps":24.54,"epc":87.40}
{"class":"SKY","device":"/dev/ttyUSB0","time":"2021-11-29T02:13:42.000Z","xdop":0.75,"ydop":0.82,"vdop":1.90,"tdop":1.05,"hdop":1.00,"gdop":2.53,"pdop":2.20,"satellites":[{"PRN":30,"el":67,"az":300,"ss":31,"used":true},{"PRN":1,"el":49,"az":124,"ss":26,"used":true},{"PRN":9,"el":9,"az":195,"ss":22,"used":true},{"PRN":14,"el":38,"az":306,"ss":18,"used":true},{"PRN":21,"el":46,"az":76,"ss":26,"used":true},{"PRN":8,"el":26,"az":43,"ss":15,"used":true},{"PRN":7,"el":74,"az":169,"ss":18,"used":true},{"PRN":17,"el":36,"az":237,"ss":20,"used":true},{"PRN":13,"el":14,"az":310,"ss":0,"used":false},{"PRN":19,"el":10,"az":229,"ss":0,"used":false},{"PRN":22,"el":1,"az":123,"ss":0,"used":false},{"PRN":138,"el":44,"az":219,"ss":0,"used":false}]}
{"class":"TPV","device":"/dev/ttyUSB0","mode":3,"time":"2021-11-29T02:13:42.000Z","ept":0.005,"lat":32.557041090,"lon":-83.656889875,"alt":135.778,"epx":11.227,"epy":12.270,"epv":43.700,"track":273.4234,"speed":0.249,"climb":-0.023,"eps":24.54,"epc":87.40}
{"class":"TPV","device":"/dev/ttyUSB0","mode":3,"time":"2021-11-29T02:13:43.000Z","ept":0.005,"lat":32.557041090,"lon":-83.656889875,"alt":135.778,"epx":11.227,"epy":12.270,"epv":43.700,"track":27.0678,"speed":0.303,"climb":0.041,"eps":24.54,"epc":87.40}
{"class":"TPV","device":"/dev/ttyUSB0","mode":3,"time":"2021-11-29T02:13:44.000Z","ept":0.005,"lat":32.557053513,"lon":-83.656888699,"alt":135.479,"epx":11.227,"epy":12.270,"epv":43.700,"track":4.5849,"speed":0.346,"climb":-0.075,"eps":24.54,"epc":87.40}
{"class":"SKY","device":"/dev/ttyUSB0","time":"2021-11-29T02:13:45.000Z","xdop":0.75,"ydop":0.82,"vdop":1.90,"tdop":1.05,"hdop":1.00,"gdop":2.53,"pdop":2.20,"satellites":[{"PRN":30,"el":67,"az":300,"ss":31,"used":true},{"PRN":1,"el":49,"az":124,"ss":26,"used":true},{"PRN":9,"el":9,"az":195,"ss":22,"used":true},{"PRN":14,"el":38,"az":306,"ss":18,"used":true},{"PRN":21,"el":46,"az":76,"ss":26,"used":true},{"PRN":8,"el":26,"az":43,"ss":15,"used":true},{"PRN":7,"el":74,"az":169,"ss":18,"used":true},{"PRN":17,"el":36,"az":237,"ss":20,"used":true},{"PRN":13,"el":14,"az":310,"ss":0,"used":false},{"PRN":19,"el":10,"az":229,"ss":0,"used":false},{"PRN":22,"el":1,"az":123,"ss":0,"used":false},{"PRN":138,"el":44,"az":219,"ss":0,"used":false}]}
{"class":"TPV","device":"/dev/ttyUSB0","mode":3,"time":"2021-11-29T02:13:45.000Z","ept":0.005,"lat":32.557053513,"lon":-83.656888699,"alt":135.479,"epx":11.227,"epy":12.270,"epv":43.700,"track":66.7097,"speed":0.150,"climb":-0.093,"eps":24.54,"epc":87.40}
{"class":"TPV","device":"/dev/ttyUSB0","mode":3,"time":"2021-11-29T02:13:46.000Z","ept":0.005,"lat":32.557053513,"lon":-83.656888699,"alt":135.479,"epx":11.227,"epy":12.270,"epv":43.700,"track":115.8198,"speed":0.276,"climb":-0.044,"eps":24.54,"epc":87.40}
{"class":"TPV","device":"/dev/ttyUSB0","mode":3,"time":"2021-11-29T02:13:47.000Z","ept":0.005,"lat":32.557053513,"lon":-83.656888699,"alt":135.479,"epx":11.227,"epy":12.270,"epv":43.700,"track":66.7097,"speed":0.150,"climb":-0.093,"eps":24.54,"epc":87.40}
{"class":"SKY","device":"/dev/ttyUSB0","time":"2021-11-29T02:13:48.000Z","xdop":0.75,"ydop":0.82,"vdop":1.90,"tdop":1.05,"hdop":1.00,"gdop":2.53,"pdop":2.20,"satellites":[{"PRN":30,"el":67,"az":300,"ss":31,"used":true},{"PRN":1,"el":49,"az":124,"ss":26,"used":true},{"PRN":9,"el":9,"az":195,"ss":22,"used":true},{"PRN":14,"el":38,"az":306,"ss":18,"used":true},{"PRN":21,"el":46,"az":76,"ss":26,"used":true},{"PRN":8,"el":26,"az":43,"ss":15,"used":true},{"PRN":7,"el":74,"az":169,"ss":18,"used":true},{"PRN":17,"el":36,"az":237,"ss":20,"used":true},{"PRN":13,"el":14,"az":310,"ss":0,"used":false},{"PRN":19,"el":10,"az":229,"ss":0,"used":false},{"PRN":22,"el":1,"az":123,"ss":0,"used":false},{"PRN":138,"el":44,"az":219,"ss":0,"used":false}]}
{"class":"TPV","device":"/dev/ttyUSB0","mode":3,"time":"2021-11-29T02:13:48.000Z","ept":0.005,"lat":32.557058336,"lon":-83.656887523,"alt":134.641,"epx":11.227,"epy":12.270,"epv":43.700,"track":66.7097,"speed":0.150,"climb":-0.093,"eps":24.54,"epc":87.40}
{"class":"TPV","device":"/dev/ttyUSB0","mode":3,"time":"2021-11-29T02:13:49.000Z","ept":0.005,"lat":32.557058336,"lon":-83.656887523,"alt":134.641,"epx":11.227,"epy":12.270,"epv":43.700,"track":66.7097,"speed":0.150,"climb":-0.093,"eps":24.54,"epc":87.40}
{"class":"TPV","device":"/dev/ttyUSB0","mode":3,"time":"2021-11-29T02:13:50.000Z","ept":0.005,"lat":32.557058336,"lon":-83.656887523,"alt":134.641,"epx":11.227,"epy":12.270,"epv":43.700,"track":33.2479,"speed":0.277,"climb":-0.131,"eps":24.54,"epc":87.40}
{"class":"SKY","device":"/dev/ttyUSB0","time":"2021-11-29T02:13:51.000Z","xdop":0.75,"ydop":0.82,"vdop":1.90,"tdop":1.05,"hdop":1.00,"gdop":2.53,"pdop":2.20,"satellites":[{"PRN":30,"el":67,"az":300,"ss":31,"used":true},{"PRN":1,"el":49,"az":124,"ss":26,"used":true},{"PRN":9,"el":9,"az":195,"ss":22,"used":true},{"PRN":14,"el":38,"az":306,"ss":18,"used":true},{"PRN":21,"el":46,"az":76,"ss":26,"used":true},{"PRN":8,"el":26,"az":43,"ss":15,"used":true},{"PRN":7,"el":74,"az":169,"ss":18,"used":true},{"PRN":17,"el":36,"az":237,"ss":20,"used":true},{"PRN":13,"el":14,"az":310,"ss":0,"used":false},{"PRN":19,"el":10,"az":229,"ss":0,"used":false},{"PRN":22,"el":1,"az":123,"ss":0,"used":false},{"PRN":138,"el":44,"az":219,"ss":0,"used":false}]}
{"class":"TPV","device":"/dev/ttyUSB0","mode":3,"time":"2021-11-29T02:13:51.000Z","ept":0.005,"lat":32.557063159,"lon":-83.656886346,"alt":133.803,"epx":11.227,"epy":12.270,"epv":43.700,"track":344.6459,"speed":0.365,"climb":-0.087,"eps":24.54,"epc":87.40}
{"class":"TPV","device":"/dev/ttyUSB0","mode":3,"time":"2021-11-29T02:13:52.000Z","ept":0.005,"lat":32.557063159,"lon":-83.656886346,"alt":133.803,"epx":11.227,"epy":12.270,"epv":43.700,"track":50.2539,"speed":0.198,"climb":-0.198,"eps":24.54,"epc":87.40}
{"class":"TPV","device":"/dev/ttyUSB0","mode":3,"time":"2021-11-29T02:13:53.000Z","ept":0.005,"lat":32.557067982,"lon":-83.656885170,"alt":132.965,"epx":11.227,"epy":12.270,"epv":43.700,"track":11.6714,"speed":0.068,"climb":-0.105,"eps":24.54,"epc":87.40}
{"class":"SKY","device":"/dev/ttyUSB0","time":"2021-11-29T02:13:54.000Z","xdop":0.75,"ydop":0.82,"vdop":1.90,"tdop":1.05,"hdop":1.00,"gdop":2.53,"pdop":2.20,"satellites":[{"PRN":30,"el":67,"az":300,"ss":31,"used":true},{"PRN":1,"el":49,"az":124,"ss":26,"used":true},{"PRN":9,"el":9,"az":195,"ss":22,"used":true},{"PRN":14,"el":38,"az":306,"ss":18,"used":true},{"PRN":21,"el":46,"az":76,"ss":25,"used":true},{"PRN":8,"el":26,"az":43,"ss":15,"used":true},{"PRN":7,"el":74,"az":169,"ss":19,"used":true},{"PRN":17,"el":36,"az":237,"ss":20,"used":true},{"PRN":13,"el":14,"az":310,"ss":0,"used":false},{"PRN":19,"el":10,"az":229,"ss":0,"used":false},{"PRN":22,"el":1,"az":123,"ss":0,"used":false},{"PRN":138,"el":44,"az":219,"ss":0,"used":false}]}
{"class":"TPV","device":"/dev/ttyUSB0","mode":3,"time":"2021-11-29T02:13:54.000Z","ept":0.005,"lat":32.557067982,"lon":-83.656885170,"alt":132.965,"epx":11.227,"epy":12.270,"epv":43.700,"track":273.4234,"speed":0.124,"climb":-0.012,"eps":24.54,"epc":87.40}
{"class":"TPV","device":"/dev/ttyUSB0","mode":3,"time":"2021-11-29T02:13:55.000Z","ept":0.005,"lat":32.557060382,"lon":-83.656885170,"alt":132.427,"epx":11.227,"epy":12.270,"epv":43.700,"track":182.8484,"speed":0.278,"climb":-0.030,"eps":24.54,"epc":87.40}
{"class":"TPV","device":"/dev/ttyUSB0","mode":3,"time":"2021-11-29T02:13:56.000Z","ept":0.005,"lat":32.557060382,"lon":-83.656885170,"alt":132.427,"epx":11.227,"epy":12.270,"epv":43.700,"track":128.5627,"speed":0.300,"climb":0.061,"eps":24.54,"epc":87.40}
{"class":"SKY","device":"/dev/ttyUSB0","time":"2021-11-29T02:13:57.000Z","xdop":0.75,"ydop":0.82,"vdop":1.90,"tdop":1.05,"hdop":1.00,"gdop":2.53,"pdop":2.20,"satellites":[{"PRN":30,"el":67,"az":300,"ss":31,"used":true},{"PRN":1,"el":49,"az":124,"ss":26,"used":true},{"PRN":9,"el":9,"az":195,"ss":22,"used":true},{"PRN":14,"el":38,"az":306,"ss":18,"used":true},{"PRN":21,"el":46,"az":76,"ss":25,"used":true},{"PRN":8,"el":26,"az":43,"ss":15,"used":true},{"PRN":7,"el":74,"az":169,"ss":19,"used":true},{"PRN":17,"el":36,"az":237,"ss":20,"used":true},{"PRN":13,"el":14,"az":310,"ss":0,"used":false},{"PRN":19,"el":10,"az":229,"ss":0,"used":false},{"PRN":22,"el":1,"az":123,"ss":0,"used":false},{"PRN":135,"el":27,"az":243,"ss":0,"used":false}]}
{"class":"TPV","device":"/dev/ttyUSB0","mode":3,"time":"2021-11-29T02:13:57.000Z","ept":0.005,"lat":32.557059845,"lon":-83.656874588,"alt":132.520,"epx":11.227,"epy":12.270,"epv":43.700,"track":129.8796,"speed":0.468,"climb":0.005,"eps":24.54,"epc":87.40}
{"class":"TPV","device":"/dev/ttyUSB0","mode":3,"time":"2021-11-29T02:13:58.000Z","ept":0.005,"lat":32.557059845,"lon":-83.656874588,"alt":132.520,"epx":11.227,"epy":12.270,"epv":43.700,"track":87.3224,"speed":0.636,"climb":-0.047,"eps":24.54,"epc":87.40}
{"class":"TPV","device":"/dev/ttyUSB0","mode":3,"time":"2021-11-29T02:13:59.000Z","ept":0.005,"lat":32.557059309,"lon":-83.656864005,"alt":132.614,"epx":11.227,"epy":12.270,"epv":43.700,"track":85.8423,"speed":0.512,"climb":-0.058,"eps":24.54,"epc":87.40}
{"class":"SKY","device":"/dev/ttyUSB0","time":"2021-11-29T02:14:00.000Z","xdop":0.75,"ydop":0.82,"vdop":1.90,"tdop":1.06,"hdop":1.00,"gdop":2.53,"pdop":2.20,"satellites":[{"PRN":30,"el":67,"az":300,"ss":32,"used":true},{"PRN":1,"el":49,"az":123,"ss":26,"used":true},{"PRN":9,"el":9,"az":195,"ss":22,"used":true},{"PRN":14,"el":39,"az":306,"ss":18,"used":true},{"PRN":21,"el":46,"az":76,"ss":25,"used":true},{"PRN":8,"el":26,"az":43,"ss":15,"used":true},{"PRN":7,"el":74,"az":169,"ss":19,"used":true},{"PRN":17,"el":36,"az":237,"ss":20,"used":true},{"PRN":13,"el":14,"az":309,"ss":0,"used":false},{"PRN":19,"el":11,"az":229,"ss":0,"used":false},{"PRN":22,"el":1,"az":121,"ss":0,"used":false},{"PRN":135,"el":27,"az":243,"ss":0,"used":false}]}
{"class":"TPV","device":"/dev/ttyUSB0","mode":3,"time":"2021-11-29T02:14:00.000Z","ept":0.005,"lat":32.557059309,"lon":-83.656864005,"alt":132.614,"epx":11.227,"epy":12.270,"epv":43.700,"track":105.2074,"speed":0.515,"climb":-0.021,"eps":24.54,"epc":87.40}
{"class":"TPV","device":"/dev/ttyUSB0","mode":3,"time":"2021-11-29T02:14:01.000Z","ept":0.005,"lat":32.557051173,"lon":-83.656853423,"alt":132.169,"epx":11.227,"epy":12.270,"epv":43.700,"track":115.8198,"speed":0.552,"climb":-0.088,"eps":24.54,"epc":87.40}
{"class":"TPV","device":"/dev/ttyUSB0","mode":3,"time":"2021-11-29T02:14:02.000Z","ept":0.005,"lat":32.557051173,"lon":-83.656853423,"alt":132.169,"epx":11.227,"epy":12.270,"epv":43.700,"track":115.8198,"speed":0.276,"climb":-0.044,"eps":24.54,"epc":87.40}
{"class":"SKY","device":"/dev/ttyUSB0","time":"2021-11-29T02:14:03.000Z","xdop":0.75,"ydop":0.82,"vdop":1.90,"tdop":1.06,"hdop":1.00,"gdop":2.53,"pdop":2.20,"satellites":[{"PRN":30,"el":67,"az":300,"ss":32,"used":true},{"PRN":1,"el":49,"az":123,"ss":26,"used":true},{"PRN":9,"el":9,"az":195,"ss":22,"used":true},{"PRN":14,"el":39,"az":306,"ss":18,"used":true},{"PRN":21,"el":46,"az":76,"ss":25,"used":true},{"PRN":8,"el":26,"az":43,"ss":15,"used":true},{"PRN":7,"el":74,"az":169,"ss":19,"used":true},{"PRN":17,"el":36,"az":237,"ss":20,"used":true},{"PRN":13,"el":14,"az":309,"ss":0,"used":false},{"PRN":19,"el":11,"az":229,"ss":0,"used":false},{"PRN":22,"el":1,"az":121,"ss":0,"used":false},{"PRN":135,"el":27,"az":243,"ss":0,"used":false}]}
{"class":"TPV","device":"/dev/ttyUSB0","mode":3,"time":"2021-11-29T02:14:03.000Z","ept":0.005,"lat":32.557051173,"lon":-83.656853423,"alt":132.169,"epx":11.227,"epy":12.270,"epv":43.700,"track":93.4234,"speed":0.124,"climb":0.012,"eps":24.54,"epc":87.40}
{"class":"TPV","device":"/dev/ttyUSB0","mode":3,"time":"2021-11-29T02:14:04.000Z","ept":0.005,"lat":32.557050637,"lon":-83.656842841,"alt":132.262,"epx":11.227,"epy":12.270,"epv":43.700,"track":93.4234,"speed":0.124,"climb":0.012,"eps":24.54,"epc":87.40}
{"class":"TPV","device":"/dev/ttyUSB0","mode":3,"time":"2021-11-29T02:14:05.000Z","ept":0.005,"lat":32.557050637,"lon":-83.656842841,"alt":132.262,"epx":11.227,"epy":12.270,"epv":43.700,"track":27.0678,"speed":0.303,"climb":0.041,"eps":24.54,"epc":87.40}
{"class":"SKY","device":"/dev/ttyUSB0","time":"2021-11-29T02:14:06.000Z","xdop":0.75,"ydop":0.82,"vdop":1.90,"tdop":1.06,"hdop":1.00,"gdop":2.53,"pdop":2.20,"satellites":[{"PRN":30,"el":67,"az":300,"ss":32,"used":true},{"PRN":1,"el":49,"az":123,"ss":25,"used":true},{"PRN":9,"el":9,"az":195,"ss":22,"used":true},{"PRN":14,"el":39,"az":306,"ss":19,"used":true},{"PRN":21,"el":46,"az":76,"ss":25,"used":true},{"PRN":8,"el":26,"az":43,"ss":15,"used":true},{"PRN":7,"el":74,"az":169,"ss":19,"used":true},{"PRN":17,"el":36,"az":237,"ss":21,"used":true},{"PRN":13,"el":14,"az":309,"ss":0,"used":false},{"PRN":19,"el":11,"az":229,"ss":0,"used":false},{"PRN":22,"el":1,"az":121,"ss":0,"used":false},{"PRN":135,"el":27,"az":243,"ss":0,"used":false}]}
{"class":"TPV","device":"/dev/ttyUSB0","mode":3,"time":"2021-11-29T02:14:06.000Z","ept":0.005,"lat":32.557050637,"lon":-83.656842841,"alt":132.262,"epx":11.227,"epy":12.270,"epv":43.700,"track":0.0000,"speed":0.000,"climb":0.000,"eps":24.54,"epc":87.40}
{"class":"TPV","device":"/dev/ttyUSB0","mode":3,"time":"2021-11-29T02:14:07.000Z","ept":0.005,"lat":32.557050637,"lon":-83.656842841,"alt":132.262,"epx":11.227,"epy":12.270,"epv":43.700,"track":4.5850,"speed":0.173,"climb":-0.037,"eps":24.54,"epc":87.40}
{"class":"TPV","device":"/dev/ttyUSB0","mode":3,"time":"2021-11-29T02:14:08.000Z","ept":0.005,"lat":32.557058237,"lon":-83.656842841,"alt":132.800,"epx":11.227,"epy":12.270,"epv":43.700,"track":44.9535,"speed":0.371,"climb":0.053,"eps":24.54,"epc":87.40}
{"class":"SKY","device":"/dev/ttyUSB0","time":"2021-11-29T02:14:09.000Z","xdop":0.75,"ydop":0.82,"vdop":1.90,"tdop":1.06,"hdop":1.00,"gdop":2.53,"pdop":2.20,"satellites":[{"PRN":30,"el":67,"az":300,"ss":32,"used":true},{"PRN":1,"el":49,"az":123,"ss":26,"used":true},{"PRN":9,"el":9,"az":195,"ss":22,"used":true},{"PRN":14,"el":39,"az":306,"ss":19,"used":true},{"PRN":21,"el":46,"az":76,"ss":25,"used":true},{"PRN":8,"el":26,"az":43,"ss":15,"used":true},{"PRN":7,"el":74,"az":169,"ss":20,"used":true},{"PRN":17,"el":36,"az":237,"ss":22,"used":true},{"PRN":13,"el":14,"az":309,"ss":0,"used":false},{"PRN":19,"el":11,"az":229,"ss":0,"used":false},{"PRN":22,"el":1,"az":121,"ss":0,"used":false},{"PRN":135,"el":27,"az":243,"ss":0,"used":false}]}
{"class":"TPV","device":"/dev/ttyUSB0","mode":3,"time":"2021-11-29T02:14:09.000Z","ept":0.005,"lat":32.557062524,"lon":-83.656831082,"alt":132.055,"epx":11.227,"epy":12.270,"epv":43.700,"track":43.1207,"speed":0.586,"climb":0.027,"eps":24.54,"epc":87.40}
{"class":"TPV","device":"/dev/ttyUSB0","mode":3,"time":"2021-11-29T02:14:10.000Z","ept":0.005,"lat":32.557062524,"lon":-83.656831082,"alt":132.055,"epx":11.227,"epy":12.270,"epv":43.700,"track":68.8003,"speed":0.415,"climb":-0.003,"eps":24.54,"epc":87.40}
